{
  "accommodations": [],
  "restaurants": [],
  "attractions": [
    {
      "name": "Explore the Imperial Palace East Garden",
      "latitude": 35.6867824,
      "longitude": 139.7571445
    },
    {
      "name": "Ginza District Exploration",
      "latitude": 35.6712228,
      "longitude": 139.7664859
    },
    {
      "name": "Shinjuku Gyoen National Garden",
      "latitude": 35.68517629999999,
      "longitude": 139.7100517
    },
    {
      "name": "Hakone Ropeway",
      "latitude": 35.2444273,
      "longitude": 139.0150413
    },
    {
      "name": "Lake Ashi Cruise",
      "latitude": 35.2095674,
      "longitude": 139.0034626
    },
    {
      "name": "Hakone Open-Air Museum",
      "latitude": 35.2448447,
      "longitude": 139.0513547
    }
  ]
}